{"version": 0.6, "generator": "Overpass API 0.7.62.10 2d4cfc48", "osm3s": {"timestamp_osm_base": "2026-03-03T16:24:39Z", "copyright": "The data included in this document is from www.openstreetmap.org. The data is made available under ODbL."}, "elements": [{"type": "node", "id": 327626229, "lat": 52.2119797, "lon": 20.9767483, "tags": {"addr:housenumber": "76", "addr:street": "Gr\u00f3jecka", "amenity": "pharmacy", "check_date": "2023-09-14", "dispensing": "yes", "name": "Farm-Jed", "opening_hours": "Mo-Su 07:30-22:00", "ref:csioz": "1082882", "wheelchair": "no"}}, {"type": "node", "id": 334336679, "lat": 52.2100163, "lon": 20.9692964, "tags": {"amenity": "pharmacy", "dispensing": "yes", "noname": "yes", "opening_hours": "Mo-Fr 08:00-20:00; Sa 08:00-14:30; Su 09:00-14:00", "ref:csioz": "1202653", "source": "msi", "wheelchair": "limited"}}, {"type": "node", "id": 4366036352, "lat": 52.2158871, "lon": 20.9811939, "tags": {"addr:housenumber": "47/51", "addr:street": "Gr\u00f3jecka", "amenity": "pharmacy", "check_date": "2024-09-12", "check_date:opening_hours": "2024-09-12", "dispensing": "yes", "name": "G\u0142\u00f3wna", "opening_hours": "Mo-Fr 07:00-21:00; Sa 08:00-18:00", "operator": "FARMACJA POLSKA APTEKI G\u0141\u00d3WNE SP. Z O.O.", "ref:csioz": "1087184", "wheelchair": "yes"}}, {"type": "node", "id": 4366036353, "lat": 52.2161079, "lon": 20.980482, "tags": {"amenity": "pharmacy", "check_date": "2025-08-29", "check_date:opening_hours": "2025-08-29", "dispensing": "yes", "drive_through": "no", "healthcare": "pharmacy", "name": "Lekoteka", "opening_hours": "Mo-Fr 08:00-21:00; Sa 08:00-19:00; Su 09:00-18:00", "operator": "Pharmalek-Jet Sp. z o.o.", "ref:csioz": "1086985", "wheelchair": "no"}}, {"type": "node", "id": 4441692170, "lat": 52.2211658, "lon": 20.9734556, "tags": {"addr:city": "Warszawa", "addr:housenumber": "134", "addr:postcode": "02-305", "addr:street": "Aleje Jerozolimskie", "amenity": "pharmacy", "dispensing": "yes", "name": "DOZ", "ref:csioz": "1192178"}}, {"type": "node", "id": 5571587550, "lat": 52.2097272, "lon": 20.9737795, "tags": {"amenity": "pharmacy", "brand": "Ziko Apteka", "brand:wikidata": "Q63432892", "dispensing": "yes", "name": "Ziko Apteka", "opening_hours": "Mo-Fr 08:00-20:00", "payment:cash": "yes", "payment:coins": "yes", "payment:mastercard": "yes", "payment:visa": "yes", "phone": "+48 12 687 57 47", "ref:csioz": "1203013", "short_name": "Ziko", "website": "https://www.ziko.pl/warszawa-apteki-drogerie-ziko/skarzynskiego-1/", "wheelchair": "yes"}}, {"type": "node", "id": 6400813831, "lat": 52.2180836, "lon": 20.9717795, "tags": {"amenity": "pharmacy", "brand": "Ziko Apteka", "brand:wikidata": "Q63432892", "description": "Ziko Apteka zlokalizowana jest w Warszawie przy ul. Szcz\u0119\u015bliwickiej 36. Czynna jest przez 5 dni w tygodniu \u2013 od poniedzia\u0142ku do pi\u0105tku.", "dispensing": "yes", "healthcare": "pharmacy", "name": "Ziko Apteka", "opening_hours": "Mo-Fr 07:30-20:00", "payment:cash": "yes", "payment:coins": "yes", "payment:mastercard": "yes", "payment:visa": "yes", "phone": "+48 12 687 57 47", "ref:csioz": "1203000", "short_name": "Ziko", "website": "https://www.ziko.pl/warszawa-apteki-drogerie-ziko/szczesliwicka-36/"}}, {"type": "node", "id": 7737901534, "lat": 52.2128782, "lon": 20.9775273, "tags": {"addr:housenumber": "72", "addr:street": "Gr\u00f3jecka", "amenity": "pharmacy", "brand": "S\u0142oneczna", "check_date": "2023-09-14", "dispensing": "yes", "email": "warszawa-grojecka@apteka-sloneczna.com.pl", "healthcare": "pharmacy", "name": "S\u0142oneczna", "opening_hours": "Mo-Fr 07:00-21:00; Sa 07:00-15:00; PH off", "phone": "+48 22 824 02 00", "ref:csioz": "1183185", "website": "http://www.apteka-sloneczna.pl", "wheelchair": "yes"}}]}